[
  {
    "name": "Aryan",
    "region": "Andhra Pradesh",
    "monthly_budget": 2000,
    "health_conditions": [
      "diabetes",
      "anemia"
    ],
    "fitness_goals": [
      "weight loss"
    ],
    "diet_type": "vegetarian"
  },
  {
    "name": "Aarav",
    "region": "Kerala",
    "monthly_budget": 3000,
    "health_conditions": [
      "hypertension"
    ],
    "fitness_goals": [
      "energy boost"
    ],
    "diet_type": "non-vegetarian"
  },
  {
    "name": " Chillapallli Tejaveni",
    "region": "Andhra Pradesh",
    "monthly_budget": 1000,
    "health_conditions": [
      "obesity"
    ],
    "fitness_goals": [
      "need to lose 5 kgs"
    ],
    "diet_type": "vegetarian"
  },
  {
    "name": " Chillapallli Tejaveni",
    "region": "Andhra Pradesh",
    "monthly_budget": 1000,
    "health_conditions": [
      "obesity"
    ],
    "fitness_goals": [
      "to lose 5 kgs of weight"
    ],
    "diet_type": "vegetarian"
  },
  {
    "name": " Chillapallli Tejaveni",
    "region": "Andhra Pradesh",
    "monthly_budget": 1000,
    "health_conditions": [
      "obesity"
    ],
    "fitness_goals": [
      "need to lose 5 kgs"
    ],
    "diet_type": "vegetarian"
  },
  {
    "name": " Chillapallli Tejaveni",
    "region": "Andhra Pradesh",
    "monthly_budget": 500,
    "health_conditions": [
      "obesity"
    ],
    "fitness_goals": [
      "need to lose 5 kgs of weight"
    ],
    "diet_type": "vegetarian"
  },
  {
    "name": " Chillapallli Tejaveni",
    "region": "Andhra Pradesh",
    "monthly_budget": 500,
    "health_conditions": [
      "obesity"
    ],
    "fitness_goals": [
      "need to lose 5 kgs of weight"
    ],
    "diet_type": "vegetarian"
  },
  {
    "name": " Chillapallli Tejaveni",
    "region": "Andhra Pradesh",
    "monthly_budget": 500,
    "health_conditions": [
      "obesity"
    ],
    "fitness_goals": [
      "need to lose 5 kgs"
    ],
    "diet_type": "vegetarian"
  },
  {
    "name": "Chillapalli Tejaveni",
    "region": "Andhra Pradesh",
    "monthly_budget": 500,
    "health_conditions": [
      "obesity"
    ],
    "fitness_goals": [
      "need to lose 5 kgs of weight"
    ],
    "diet_type": "vegetarian"
  },
  {
    "name": "Chillapalli Tejaveni",
    "region": "Andhra Pradesh",
    "monthly_budget": 2000,
    "health_conditions": [
      "body pains"
    ],
    "fitness_goals": [
      "weight loss upto 10 kgs"
    ],
    "diet_type": "non-vegetarian"
  },
  {
    "name": " Chillapallli Tejaveni",
    "region": "Andhra Pradesh",
    "monthly_budget": 500,
    "health_conditions": [
      "obesity"
    ],
    "fitness_goals": [
      "to lose 5 kgs"
    ],
    "diet_type": "vegetarian"
  },
  {
    "name": " Chillapallli Tejaveni",
    "region": "Andhra Pradesh",
    "monthly_budget": 3000,
    "health_conditions": [
      "high insulin resistivity",
      "obesity"
    ],
    "fitness_goals": [
      "reduce 10 kgs of weight"
    ],
    "diet_type": "non-vegetarian"
  },
  {
    "name": " Chillapallli Tejaveni",
    "region": "Andhra Pradesh",
    "monthly_budget": 1000,
    "health_conditions": [
      "obesity"
    ],
    "fitness_goals": [
      "need to lose 5 kgs"
    ],
    "diet_type": "vegetarian"
  },
  {
    "name": " Chillapallli Tejaveni",
    "region": "Andhra Pradesh",
    "monthly_budget": 1000,
    "health_conditions": [
      "obesity"
    ],
    "fitness_goals": [
      "need to lose 5 kgs of weight"
    ],
    "diet_type": "vegetarian"
  },
  {
    "name": " Chillapallli Tejaveni",
    "region": "Andhra Pradesh",
    "monthly_budget": 1100,
    "health_conditions": [
      "obesity"
    ],
    "fitness_goals": [
      "need to lose 5 kgs"
    ],
    "diet_type": "non-vegetarian"
  },
  {
    "name": "chillapalli tejaveni",
    "region": "Andhra Pradesh",
    "monthly_budget": 1000,
    "health_conditions": [
      "obesity"
    ],
    "fitness_goals": [
      "lose 5 kgs of weight"
    ],
    "diet_type": "vegetarian"
  },
  {
    "name": "chillapalli tejaveni",
    "region": "Andhra Pradesh",
    "monthly_budget": 1000,
    "health_conditions": [
      "obesity"
    ],
    "fitness_goals": [
      "lose a weight of 5 kgs"
    ],
    "diet_type": "vegetarian"
  },
  {
    "name": "chillapalli sesi kumar",
    "region": "Andhra Pradesh",
    "monthly_budget": 10000,
    "health_conditions": [
      "blood plessure"
    ],
    "fitness_goals": [
      "to gain muscle"
    ],
    "diet_type": "non-vegetarian"
  },
  {
    "name": " Chillapallli Tejaveni",
    "region": "Andhra Pradesh",
    "monthly_budget": 1000,
    "health_conditions": [
      "obesity"
    ],
    "fitness_goals": [
      "need to lose 5 kgs of weight"
    ],
    "diet_type": "non-vegetarian",
    "location_input": "Andhra Pradesh, India",
    "location": {},
    "regional_ingredients": []
  },
  {
    "name": "Chillapalli Tejaveni",
    "region": "Andhra Pradesh",
    "monthly_budget": 500,
    "health_conditions": [
      "obesity"
    ],
    "fitness_goals": [
      "to lose 5 kgs"
    ],
    "diet_type": "non-vegetarian",
    "location_input": "Mangalagiri",
    "location": {
      "city": "Mangalagiri",
      "country": "India",
      "region": "Andhra Pradesh",
      "latitude": 16.43,
      "longitude": 80.55
    },
    "regional_ingredients": []
  },
  {
    "name": " Chillapallli Tejaveni",
    "region": "Andhra Pradesh",
    "monthly_budget": 2000,
    "health_conditions": [
      "obesity"
    ],
    "fitness_goals": [
      "need to lose 5 kgs of weight"
    ],
    "diet_type": "non-vegetarian",
    "location_input": "Mangalagiri",
    "location": {
      "city": "Mangalagiri",
      "country": "India",
      "region": "Andhra Pradesh",
      "latitude": 16.43,
      "longitude": 80.55
    },
    "regional_ingredients": []
  },
  {
    "name": " Chillapallli Tejaveni",
    "region": "Andhra Pradesh",
    "monthly_budget": 1000,
    "health_conditions": [
      "none"
    ],
    "fitness_goals": [
      "to gain muscle"
    ],
    "diet_type": "non-vegetarian",
    "location_input": "Mangalagiri",
    "location": {
      "city": "Mangalagiri",
      "country": "India",
      "region": "Andhra Pradesh",
      "latitude": 16.43,
      "longitude": 80.55
    },
    "regional_ingredients": []
  },
  {
    "name": "Chillapalli Tejaveni",
    "monthly_budget": 1000,
    "health_conditions": [
      "none"
    ],
    "fitness_goals": [
      "to gain muscle"
    ],
    "diet_type": "vegan",
    "location_input": "Mangalagiri",
    "location": {
      "city": "Mangalagiri",
      "country": "India",
      "region": "Andhra Pradesh",
      "latitude": 16.43,
      "longitude": 80.55
    },
    "regional_ingredients": []
  },
  {
    "name": " Chillapallli Tejaveni",
    "monthly_budget": 1000,
    "health_conditions": [
      "none"
    ],
    "fitness_goals": [
      "need to lose 5 kgs of weight"
    ],
    "diet_type": "keto",
    "location_input": "Mangalagiri",
    "location": {
      "city": "Mangalagiri",
      "country": "India",
      "region": "Andhra Pradesh",
      "latitude": 16.43,
      "longitude": 80.55
    },
    "regional_ingredients": []
  },
  {
    "name": " Chillapallli Tejaveni",
    "monthly_budget": 1000,
    "health_conditions": [
      "none"
    ],
    "fitness_goals": [
      "need to lose 5 kgs of weight"
    ],
    "diet_type": "vegan",
    "location_input": "Mangalagiri",
    "location": {
      "city": "Mangalagiri",
      "country": "India",
      "region": "Andhra Pradesh",
      "latitude": 16.43,
      "longitude": 80.55
    },
    "regional_ingredients": []
  },
  {
    "name": " Chillapallli Tejaveni",
    "monthly_budget": 1000,
    "health_conditions": [
      "need to lose 5 kgs"
    ],
    "fitness_goals": [
      "need to lose 5 kgs of weight"
    ],
    "diet_type": "vegan",
    "location_input": "Mangalagiri",
    "location": {
      "city": "Mangalagiri",
      "country": "India",
      "region": "Andhra Pradesh",
      "latitude": 16.43,
      "longitude": 80.55
    },
    "regional_ingredients": []
  },
  {
    "name": " Chillapallli Tejaveni",
    "monthly_budget": 1000,
    "health_conditions": [
      "none"
    ],
    "fitness_goals": [
      "to build muscle"
    ],
    "diet_type": "keto",
    "location_input": "Mangalagiri",
    "location": {
      "city": "Mangalagiri",
      "country": "India",
      "region": "Andhra Pradesh",
      "latitude": 16.43,
      "longitude": 80.55
    },
    "regional_ingredients": []
  },
  {
    "name": " Chillapallli Tejaveni",
    "monthly_budget": 1000,
    "health_conditions": [
      "obesity"
    ],
    "fitness_goals": [
      "to lose 5 kgs of weight"
    ],
    "diet_type": "keto",
    "location_input": "Mangalagiri",
    "location": {
      "city": "Mangalagiri",
      "country": "India",
      "region": "Andhra Pradesh",
      "latitude": 16.43,
      "longitude": 80.55
    },
    "regional_ingredients": []
  },
  {
    "name": " Chillapallli Tejaveni",
    "monthly_budget": 1000,
    "health_conditions": [
      "diabetes"
    ],
    "fitness_goals": [
      "to lose weight"
    ],
    "diet_type": "keto",
    "location_input": "Mangalagiri",
    "location": {
      "city": "Mangalagiri",
      "country": "India",
      "region": "Andhra Pradesh",
      "latitude": 16.43,
      "longitude": 80.55
    },
    "regional_ingredients": []
  },
  {
    "name": " Chillapallli Tejaveni",
    "monthly_budget": 1000,
    "health_conditions": [
      "none"
    ],
    "fitness_goals": [
      "need to lose 5 kgs of weight"
    ],
    "diet_type": "keto",
    "location_input": "Mangalagiri",
    "location": {
      "city": "Mangalagiri",
      "country": "India",
      "region": "Andhra Pradesh",
      "latitude": 16.43,
      "longitude": 80.55
    },
    "regional_ingredients": []
  },
  {
    "name": " Chillapallli Tejaveni",
    "monthly_budget": 2000,
    "health_conditions": [
      "none"
    ],
    "fitness_goals": [
      "to build muscle"
    ],
    "diet_type": "keto",
    "location_input": "Mangalagiri",
    "location": {},
    "regional_ingredients": []
  },
  {
    "name": " Chillapallli Tejaveni",
    "monthly_budget": 1000,
    "health_conditions": [
      "obesity"
    ],
    "fitness_goals": [
      "to lose weight"
    ],
    "diet_type": "keto",
    "location_input": "Mangalagiri",
    "location": {
      "city": "Mangalagiri",
      "country": "India",
      "region": "Andhra Pradesh",
      "latitude": 16.43,
      "longitude": 80.55
    },
    "regional_ingredients": []
  },
  {
    "name": " Chillapallli Tejaveni",
    "monthly_budget": 1000,
    "health_conditions": [
      "anemia"
    ],
    "fitness_goals": [
      "to build muscle"
    ],
    "diet_type": "vegan",
    "location_input": "Mangalagiri",
    "location": {
      "city": "Mangalagiri",
      "country": "India",
      "region": "Andhra Pradesh",
      "latitude": 16.43,
      "longitude": 80.55
    },
    "regional_ingredients": []
  },
  {
    "name": " Chillapallli Tejaveni",
    "monthly_budget": 1000,
    "health_conditions": [
      "none"
    ],
    "fitness_goals": [
      "to build muscle"
    ],
    "diet_type": "keto",
    "location_input": "Mangalagiri",
    "location": {
      "city": "Mangalagiri",
      "country": "India",
      "region": "Andhra Pradesh",
      "latitude": 16.43,
      "longitude": 80.55
    },
    "regional_ingredients": []
  },
  {
    "name": " Chillapallli Tejaveni",
    "monthly_budget": 1000,
    "health_conditions": [
      "migrene"
    ],
    "fitness_goals": [
      "to build muscle"
    ],
    "diet_type": "keto",
    "location_input": "Mangalagiri",
    "location": {
      "city": "Mangalagiri",
      "country": "India",
      "region": "Andhra Pradesh",
      "latitude": 16.43,
      "longitude": 80.55
    },
    "regional_ingredients": []
  },
  {
    "name": " Chillapallli Tejaveni",
    "monthly_budget": 1000,
    "health_conditions": [
      "none"
    ],
    "fitness_goals": [
      "to build muscle"
    ],
    "diet_type": "vegan",
    "location_input": "Mangalagiri",
    "location": {},
    "regional_ingredients": []
  },
  {
    "name": " Chillapallli Tejaveni",
    "monthly_budget": 1000,
    "health_conditions": [
      "none"
    ],
    "fitness_goals": [
      "to build muscle"
    ],
    "diet_type": "vegan",
    "location_input": "Mangalagiri",
    "location": {
      "city": "Mangalagiri",
      "country": "India",
      "region": "Andhra Pradesh",
      "latitude": 16.43,
      "longitude": 80.55
    },
    "regional_ingredients": []
  },
  {
    "name": " Chillapallli Tejaveni",
    "monthly_budget": 2000,
    "health_conditions": [
      "hypertension"
    ],
    "fitness_goals": [
      "to build muscle"
    ],
    "diet_type": "vegan",
    "location_input": "Mangalagiri",
    "location": {
      "city": "Mangalagiri",
      "country": "India",
      "region": "Andhra Pradesh",
      "latitude": 16.43,
      "longitude": 80.55
    },
    "regional_ingredients": []
  },
  {
    "name": "Arjun Rathore",
    "monthly_budget": 3000,
    "health_conditions": [
      "none"
    ],
    "fitness_goals": [
      "to build muscle"
    ],
    "diet_type": "vegan",
    "location_input": "Chennai",
    "location": {
      "city": "Chennai",
      "country": "India",
      "region": "Tamil Nadu",
      "latitude": 13.0825,
      "longitude": 80.275
    },
    "regional_ingredients": []
  },
  {
    "name": " Chillapallli Tejaveni",
    "monthly_budget": 2000,
    "health_conditions": [
      "none"
    ],
    "fitness_goals": [
      "to gain muscle"
    ],
    "diet_type": "vegan",
    "location_input": "Mangalagiri",
    "location": {
      "city": "Mangalagiri",
      "country": "India",
      "region": "Andhra Pradesh",
      "latitude": 16.43,
      "longitude": 80.55
    },
    "regional_ingredients": []
  },
  {
    "name": "konidela kalyan babu",
    "monthly_budget": 9500,
    "health_conditions": [
      "obesity"
    ],
    "fitness_goals": [
      "need to lose 15 kgs of weight"
    ],
    "diet_type": "non-vegetarian",
    "location_input": "bapatla",
    "location": {
      "city": "Bapatla",
      "country": "India",
      "region": "Andhra Pradesh",
      "latitude": 15.90422,
      "longitude": 80.46743
    },
    "regional_ingredients": []
  },
  {
    "name": " Chillapallli Tejaveni",
    "monthly_budget": 1000,
    "health_conditions": [
      "none"
    ],
    "fitness_goals": [
      "to stay active all day"
    ],
    "diet_type": "vegan",
    "location_input": "Tirupati",
    "location": {
      "city": "Tirupati",
      "country": "India",
      "region": "Andhra Pradesh",
      "latitude": 13.65,
      "longitude": 79.42
    },
    "regional_ingredients": []
  },
  {
    "name": "Aryan Khanna",
    "monthly_budget": 5000,
    "health_conditions": [
      "none"
    ],
    "fitness_goals": [
      "to build muscle"
    ],
    "diet_type": "vegan",
    "location_input": "Bengaluru",
    "location": {
      "city": "Bengaluru",
      "country": "India",
      "region": "Karnataka",
      "latitude": 12.97194,
      "longitude": 77.59369
    },
    "regional_ingredients": []
  },
  {
    "name": "Aryan Khanna",
    "monthly_budget": 2000,
    "health_conditions": [
      "none"
    ],
    "fitness_goals": [
      "to gain muscle"
    ],
    "diet_type": "vegan",
    "location_input": "Vijayawada",
    "location": {
      "city": "Vijayawada",
      "country": "India",
      "region": "Andhra Pradesh",
      "latitude": 16.516666666,
      "longitude": 80.616666666
    },
    "regional_ingredients": []
  },
  {
    "name": " Chillapallli Tejaveni",
    "monthly_budget": 1000,
    "health_conditions": [
      "none"
    ],
    "fitness_goals": [
      "need to lose 5 kgs of weight"
    ],
    "diet_type": "pescatarian",
    "location_input": "Lepakshi",
    "location": {
      "city": "Lepakshi",
      "country": "India",
      "region": "Andhra Pradesh",
      "latitude": 13.80374,
      "longitude": 77.60958
    },
    "regional_ingredients": []
  },
  {
    "name": " Chillapallli Tejaveni",
    "monthly_budget": 1000,
    "health_conditions": [
      "none"
    ],
    "fitness_goals": [
      "to build muscle"
    ],
    "diet_type": "pescatarian",
    "location_input": "Machilipatnam",
    "location": {
      "city": "Machilipatnam",
      "country": "India",
      "region": "Andhra Pradesh",
      "latitude": 16.166666666,
      "longitude": 81.133333333
    },
    "regional_ingredients": []
  },
  {
    "name": " Chillapallli Tejaveni",
    "monthly_budget": 1000,
    "health_conditions": [
      "blood pressure"
    ],
    "fitness_goals": [
      "to build muscle"
    ],
    "diet_type": "pescatarian",
    "location_input": "Mangalagiri",
    "location": {
      "city": "Mangalagiri",
      "country": "India",
      "region": "Andhra Pradesh",
      "latitude": 16.43,
      "longitude": 80.55
    },
    "regional_ingredients": []
  },
  {
    "name": " Chillapallli Tejaveni",
    "monthly_budget": 1000,
    "health_conditions": [
      "pcos"
    ],
    "fitness_goals": [
      "to lose weight"
    ],
    "diet_type": "vegan",
    "location_input": "Mangalagiri",
    "location": {
      "city": "Mangalagiri",
      "country": "India",
      "region": "Andhra Pradesh",
      "latitude": 16.43,
      "longitude": 80.55
    },
    "regional_ingredients": []
  },
  {
    "name": "Aryan",
    "monthly_budget": 1000,
    "health_conditions": [
      "none"
    ],
    "fitness_goals": [
      "to build muscle"
    ],
    "diet_type": "vegan",
    "location_input": "Anantapur",
    "location": {
      "city": "Anantapuramu district",
      "country": "India",
      "region": "Andhra Pradesh",
      "latitude": 14.68,
      "longitude": 77.6
    },
    "regional_ingredients": []
  },
  {
    "name": "Aryan Khanna",
    "monthly_budget": 1000,
    "health_conditions": [
      "none"
    ],
    "fitness_goals": [
      "to build muscle"
    ],
    "diet_type": "vegan",
    "location_input": "Mangalagiri",
    "location": {
      "city": "Mangalagiri",
      "country": "India",
      "region": "Andhra Pradesh",
      "latitude": 16.43,
      "longitude": 80.55
    },
    "regional_ingredients": []
  },
  {
    "name": "Aryan Khanna",
    "monthly_budget": 1000,
    "health_conditions": [
      "none"
    ],
    "fitness_goals": [
      "to build muscle"
    ],
    "diet_type": "vegan",
    "location_input": "Mangalagiri",
    "location": {
      "city": "Mangalagiri",
      "country": "India",
      "region": "Andhra Pradesh",
      "latitude": 16.43,
      "longitude": 80.55
    },
    "regional_ingredients": []
  },
  {
    "name": " Chillapallli Tejaveni",
    "monthly_budget": 2000,
    "health_conditions": [
      "none"
    ],
    "fitness_goals": [
      "to gain muscle"
    ],
    "diet_type": "vegan",
    "location_input": "Thiruvananthapuram",
    "location": {
      "city": "Thiruvananthapuram",
      "country": "India",
      "region": "Kerala",
      "latitude": 8.4855,
      "longitude": 76.94924
    },
    "regional_ingredients": []
  },
  {
    "name": " Chillapallli Tejaveni",
    "monthly_budget": 3000,
    "health_conditions": [
      "none"
    ],
    "fitness_goals": [
      "to stay active"
    ],
    "diet_type": "vegan",
    "location_input": "Busan",
    "location": {
      "city": "Busane",
      "country": "Ghana",
      "region": "Upper West Region",
      "latitude": 10.97414,
      "longitude": -2.46082
    },
    "regional_ingredients": []
  },
  {
    "name": " Chillapallli Tejaveni",
    "monthly_budget": 1000,
    "health_conditions": [
      "low iron"
    ],
    "fitness_goals": [
      "to stay active"
    ],
    "diet_type": "vegan",
    "location_input": "Khammam",
    "location": {
      "city": "Khammam",
      "country": "India",
      "region": "Telangana",
      "latitude": 17.25,
      "longitude": 80.15
    },
    "regional_ingredients": []
  },
  {
    "name": " Chillapallli Tejaveni",
    "monthly_budget": 1000,
    "health_conditions": [
      "low iron"
    ],
    "fitness_goals": [
      "to build muscle"
    ],
    "diet_type": "vegan",
    "location_input": "Hyderabad",
    "location": {
      "city": "Hyderabad",
      "country": "India",
      "region": "Telangana",
      "latitude": 17.361666666,
      "longitude": 78.474722222
    },
    "regional_ingredients": []
  },
  {
    "name": " Chillapallli Tejaveni",
    "monthly_budget": 1000,
    "health_conditions": [
      "none"
    ],
    "fitness_goals": [
      "to build muscle"
    ],
    "diet_type": "vegan",
    "location_input": "Mangalagiri",
    "location": {
      "city": "Mangalagiri",
      "country": "India",
      "region": "Andhra Pradesh",
      "latitude": 16.43,
      "longitude": 80.55
    },
    "regional_ingredients": []
  },
  {
    "name": " Chillapallli Tejaveni",
    "monthly_budget": 1000,
    "health_conditions": [
      "none"
    ],
    "fitness_goals": [
      "to build muscle"
    ],
    "diet_type": "vegan",
    "location_input": "Chennai",
    "location": {
      "city": "Chennai",
      "country": "India",
      "region": "Tamil Nadu",
      "latitude": 13.0825,
      "longitude": 80.275
    },
    "regional_ingredients": []
  },
  {
    "name": " Chillapallli Tejaveni",
    "monthly_budget": 1000,
    "health_conditions": [
      "diabetes"
    ],
    "fitness_goals": [
      "need to lose 5 kgs of weight"
    ],
    "diet_type": "vegetarian",
    "location_input": "bapatla",
    "location": {
      "city": "Bapatla",
      "country": "India",
      "region": "Andhra Pradesh",
      "latitude": 15.90422,
      "longitude": 80.46743
    },
    "regional_ingredients": []
  },
  {
    "name": "Aryan Khanna",
    "monthly_budget": 1000,
    "health_conditions": [
      "low protein"
    ],
    "fitness_goals": [
      "muscle gain"
    ],
    "diet_type": "vegan",
    "location_input": "bapatla",
    "location": {
      "city": "Bapatla",
      "country": "India",
      "region": "Andhra Pradesh",
      "latitude": 15.90422,
      "longitude": 80.46743
    },
    "regional_ingredients": []
  },
  {
    "name": "Aryan Khanna",
    "monthly_budget": 1000,
    "health_conditions": [
      "low iron"
    ],
    "fitness_goals": [
      "energy boost"
    ],
    "diet_type": "vegetarian",
    "location_input": "Hyderabad",
    "location": {},
    "regional_ingredients": []
  },
  {
    "name": "Aryan Khanna",
    "monthly_budget": 1000,
    "health_conditions": [
      "low iron"
    ],
    "fitness_goals": [
      "energy boost"
    ],
    "diet_type": "vegetarian",
    "location_input": "Hyderabad",
    "location": {
      "city": "Hyderabad",
      "country": "India",
      "region": "Telangana",
      "latitude": 17.361666666,
      "longitude": 78.474722222
    },
    "regional_ingredients": []
  },
  {
    "name": "Aryan",
    "monthly_budget": 1000,
    "health_conditions": [
      "low protein"
    ],
    "fitness_goals": [
      "energy boost"
    ],
    "diet_type": "vegan",
    "location_input": "Hyderabad",
    "location": {
      "city": "Hyderabad",
      "country": "India",
      "region": "Telangana",
      "latitude": 17.361666666,
      "longitude": 78.474722222
    },
    "regional_ingredients": []
  },
  {
    "name": " Chillapallli Tejaveni",
    "monthly_budget": 1000,
    "health_conditions": [
      "none"
    ],
    "fitness_goals": [
      "to build muscle"
    ],
    "diet_type": "vegan",
    "location_input": "Mangalagiri",
    "location": {
      "city": "Mangalagiri",
      "country": "India",
      "region": "Andhra Pradesh",
      "latitude": 16.43,
      "longitude": 80.55
    },
    "regional_ingredients": []
  },
  {
    "name": " Chillapallli Tejaveni",
    "monthly_budget": 1000,
    "health_conditions": [
      "none"
    ],
    "fitness_goals": [
      "to build muscle"
    ],
    "diet_type": "vegan",
    "location_input": "Mangalagiri",
    "location": {
      "city": "Mangalagiri",
      "country": "India",
      "region": "Andhra Pradesh",
      "latitude": 16.43,
      "longitude": 80.55
    },
    "regional_ingredients": []
  },
  {
    "name": " Chillapallli Tejaveni",
    "monthly_budget": 1000,
    "health_conditions": [
      "none"
    ],
    "fitness_goals": [
      "to build muscle"
    ],
    "diet_type": "vegan",
    "location_input": "Mangalagiri",
    "location": {
      "city": "Mangalagiri",
      "country": "India",
      "region": "Andhra Pradesh",
      "latitude": 16.43,
      "longitude": 80.55
    },
    "regional_ingredients": []
  },
  {
    "name": " Chillapallli Tejaveni",
    "monthly_budget": 1000,
    "health_conditions": [
      "none"
    ],
    "fitness_goals": [
      "to build muscle"
    ],
    "diet_type": "vegan",
    "location_input": "Mangalagiri",
    "location": {
      "city": "Mangalagiri",
      "country": "India",
      "region": "Andhra Pradesh",
      "latitude": 16.43,
      "longitude": 80.55
    },
    "regional_ingredients": []
  },
  {
    "name": " Chillapallli Tejaveni",
    "monthly_budget": 1000,
    "health_conditions": [
      "none"
    ],
    "fitness_goals": [
      "to build muscle"
    ],
    "diet_type": "vegan",
    "location_input": "Mangalagiri",
    "location": {
      "city": "Mangalagiri",
      "country": "India",
      "region": "Andhra Pradesh",
      "latitude": 16.43,
      "longitude": 80.55
    },
    "regional_ingredients": []
  },
  {
    "name": " Chillapallli Tejaveni",
    "monthly_budget": 2000,
    "health_conditions": [
      "low protein"
    ],
    "fitness_goals": [
      "energy boost"
    ],
    "diet_type": "vegan",
    "location_input": "Chennai",
    "location": {
      "city": "Chennai",
      "country": "India",
      "region": "Tamil Nadu",
      "latitude": 13.0825,
      "longitude": 80.275
    },
    "regional_ingredients": []
  },
  {
    "name": " Chillapallli Tejaveni",
    "monthly_budget": 1000,
    "health_conditions": [
      "none"
    ],
    "fitness_goals": [
      "to build muscle"
    ],
    "diet_type": "vegetarian",
    "location_input": "Hyderabad",
    "location": {
      "city": "Hyderabad",
      "country": "India",
      "region": "Telangana",
      "latitude": 17.361666666,
      "longitude": 78.474722222
    },
    "regional_ingredients": []
  },
  {
    "name": " Chillapallli Tejaveni",
    "monthly_budget": 1000,
    "health_conditions": [
      "low iron"
    ],
    "fitness_goals": [
      "to build muscle"
    ],
    "diet_type": "vegan",
    "location_input": "Mangalagiri",
    "location": {
      "city": "Mangalagiri",
      "country": "India",
      "region": "Andhra Pradesh",
      "latitude": 16.43,
      "longitude": 80.55
    },
    "regional_ingredients": []
  },
  {
    "name": " Chillapallli Tejaveni",
    "monthly_budget": 1000,
    "health_conditions": [
      "none"
    ],
    "fitness_goals": [
      "to build muscle"
    ],
    "diet_type": "vegan",
    "location_input": "Chennai",
    "location": {
      "city": "Chennai",
      "country": "India",
      "region": "Tamil Nadu",
      "latitude": 13.0825,
      "longitude": 80.275
    },
    "regional_ingredients": []
  },
  {
    "name": " Chillapallli Tejaveni",
    "monthly_budget": 1000,
    "health_conditions": [
      "low iron"
    ],
    "fitness_goals": [
      "to build muscle"
    ],
    "diet_type": "vegan",
    "location_input": "Mangalagiri",
    "location": {
      "city": "Mangalagiri",
      "country": "India",
      "region": "Andhra Pradesh",
      "latitude": 16.43,
      "longitude": 80.55
    },
    "regional_ingredients": [],
    "mood": "\ud83d\ude07 Calm",
    "activity_type": "Walking",
    "sleep_hours": 8.0
  },
  {
    "name": " Chillapallli Tejaveni",
    "monthly_budget": 1000,
    "health_conditions": [
      "none"
    ],
    "fitness_goals": [
      "to build muscle"
    ],
    "diet_type": "vegan",
    "location_input": "Mangalagiri",
    "location": {
      "city": "Mangalagiri",
      "country": "India",
      "region": "Andhra Pradesh",
      "latitude": 16.43,
      "longitude": 80.55
    },
    "regional_ingredients": [],
    "mood": "\ud83d\ude34 Tired",
    "activity_type": "Walking",
    "sleep_hours": 7.0
  },
  {
    "name": " Chillapallli Tejaveni",
    "monthly_budget": 1000,
    "health_conditions": [
      "none"
    ],
    "fitness_goals": [
      "to build muscle"
    ],
    "diet_type": "vegan",
    "location_input": "Mangalagiri",
    "location": {
      "city": "Mangalagiri",
      "country": "India",
      "region": "Andhra Pradesh",
      "latitude": 16.43,
      "longitude": 80.55
    },
    "regional_ingredients": [],
    "mood": "\ud83d\ude20 Frustrated",
    "activity_type": "Walking",
    "sleep_hours": 7.0
  },
  {
    "name": " Chillapallli Tejaveni",
    "monthly_budget": 1000,
    "health_conditions": [
      "low iron"
    ],
    "fitness_goals": [
      "to stay active"
    ],
    "diet_type": "vegan",
    "location_input": "Mangalagiri",
    "location": {
      "city": "Mangalagiri",
      "country": "India",
      "region": "Andhra Pradesh",
      "latitude": 16.43,
      "longitude": 80.55
    },
    "regional_ingredients": [],
    "mood": "\ud83d\ude34 Tired",
    "activity_type": "Running",
    "sleep_hours": 7.0
  },
  {
    "name": " Chillapallli Tejaveni",
    "monthly_budget": 1100,
    "health_conditions": [
      "none"
    ],
    "fitness_goals": [
      "to stay active"
    ],
    "diet_type": "vegan",
    "location_input": "Mangalagiri",
    "location": {
      "city": "Mangalagiri",
      "country": "India",
      "region": "Andhra Pradesh",
      "latitude": 16.43,
      "longitude": 80.55
    },
    "regional_ingredients": [],
    "mood": "\ud83d\ude34 Tired",
    "activity_type": "Walking",
    "sleep_hours": 7.0
  },
  {
    "name": " Chillapallli Tejaveni",
    "monthly_budget": 3000,
    "health_conditions": [
      "none"
    ],
    "fitness_goals": [
      "to build muscle"
    ],
    "diet_type": "vegan",
    "location_input": "Mangalagiri",
    "location": {
      "city": "Mangalagiri",
      "country": "India",
      "region": "Andhra Pradesh",
      "latitude": 16.43,
      "longitude": 80.55
    },
    "regional_ingredients": [],
    "mood": "\ud83d\ude34 Tired",
    "activity_type": "Walking",
    "sleep_hours": 7.0
  },
  {
    "name": "Aryan",
    "monthly_budget": 1000,
    "health_conditions": [
      "none"
    ],
    "fitness_goals": [
      "to build muscle"
    ],
    "diet_type": "vegan",
    "location_input": "Chennai",
    "location": {
      "city": "Chennai",
      "country": "India",
      "region": "Tamil Nadu",
      "latitude": 13.0825,
      "longitude": 80.275
    },
    "regional_ingredients": [],
    "mood": "\ud83d\ude20 Frustrated",
    "activity_type": "Running",
    "sleep_hours": 7.0
  },
  {
    "name": " Chillapallli Tejaveni",
    "monthly_budget": 1000,
    "health_conditions": [
      "none"
    ],
    "fitness_goals": [
      "to build muscle"
    ],
    "diet_type": "vegan",
    "location_input": "Mangalagiri",
    "location": {
      "city": "Mangalagiri",
      "country": "India",
      "region": "Andhra Pradesh",
      "latitude": 16.43,
      "longitude": 80.55
    },
    "regional_ingredients": [],
    "mood": "\ud83d\ude20 Frustrated",
    "activity_type": "Running",
    "sleep_hours": 8.0
  },
  {
    "name": " Chillapallli Tejaveni",
    "monthly_budget": 1000,
    "health_conditions": [
      "low iron"
    ],
    "fitness_goals": [
      "to build muscle"
    ],
    "diet_type": "keto",
    "location_input": "Mangalagiri",
    "location": {
      "city": "Mangalagiri",
      "country": "India",
      "region": "Andhra Pradesh",
      "latitude": 16.43,
      "longitude": 80.55
    },
    "regional_ingredients": [],
    "mood": "\ud83d\ude1e Low",
    "activity_type": "Walking",
    "sleep_hours": 7.0
  },
  {
    "name": " Chillapallli Tejaveni",
    "monthly_budget": 1000,
    "health_conditions": [
      "low iron"
    ],
    "fitness_goals": [
      "to build muscle"
    ],
    "diet_type": "keto",
    "location_input": "Mangalagiri",
    "location": {
      "city": "Mangalagiri",
      "country": "India",
      "region": "Andhra Pradesh",
      "latitude": 16.43,
      "longitude": 80.55
    },
    "regional_ingredients": [],
    "mood": "\ud83d\ude0a Happy",
    "activity_type": "Walking",
    "sleep_hours": 7.0
  },
  {
    "name": "Chillapalli Tejaveni",
    "monthly_budget": 1000,
    "health_conditions": [
      "low iron"
    ],
    "fitness_goals": [
      "to build muscle"
    ],
    "diet_type": "vegan",
    "location_input": "Tadepalli",
    "location": {
      "city": "Tadepalligudem",
      "country": "India",
      "region": "Andhra Pradesh",
      "latitude": 16.81467,
      "longitude": 81.52717
    },
    "regional_ingredients": [],
    "mood": "\ud83d\ude1e Low",
    "activity_type": "Running",
    "sleep_hours": 8.0
  },
  {
    "name": "Tejaveni Chillapalli",
    "monthly_budget": 1000,
    "health_conditions": [
      "low protein"
    ],
    "fitness_goals": [
      "weight loss"
    ],
    "diet_type": "vegan",
    "location_input": "Mangalagiri",
    "location": {
      "city": "Mangalagiri",
      "country": "India",
      "region": "Andhra Pradesh",
      "latitude": 16.43,
      "longitude": 80.55
    },
    "regional_ingredients": [],
    "mood": "\ud83d\ude34 Tired",
    "activity_type": "Running",
    "sleep_hours": 8.0
  },
  {
    "name": " Chillapallli Tejaveni",
    "monthly_budget": 1000,
    "health_conditions": [
      "none"
    ],
    "fitness_goals": [
      "need to lose 5 kgs"
    ],
    "diet_type": "vegan",
    "location_input": "Chennai",
    "location": {
      "city": "Chennai",
      "country": "India",
      "region": "Tamil Nadu",
      "latitude": 13.0825,
      "longitude": 80.275
    },
    "regional_ingredients": [],
    "mood": "\ud83d\ude34 Tired",
    "activity_type": "Running",
    "sleep_hours": 8.0
  },
  {
    "name": "Chillapalli Tejaveni",
    "monthly_budget": 1000,
    "health_conditions": [
      "low protein"
    ],
    "fitness_goals": [
      "to stay active"
    ],
    "diet_type": "vegan",
    "location_input": "Kolkata",
    "location": {
      "city": "Kolkata",
      "country": "India",
      "region": "West Bengal",
      "latitude": 22.5675,
      "longitude": 88.37
    },
    "regional_ingredients": [],
    "mood": "\ud83d\ude34 Tired",
    "activity_type": "Walking",
    "sleep_hours": 8.0
  },
  {
    "name": " Chillapallli Tejaveni",
    "monthly_budget": 1000,
    "health_conditions": [
      "low protein"
    ],
    "fitness_goals": [
      "to build muscle"
    ],
    "diet_type": "vegan",
    "location_input": "bapatla",
    "location": {
      "city": "Bapatla",
      "country": "India",
      "region": "Andhra Pradesh",
      "latitude": 15.90422,
      "longitude": 80.46743
    },
    "regional_ingredients": [],
    "mood": "\ud83d\ude34 Tired",
    "activity_type": "Running",
    "sleep_hours": 8.0
  },
  {
    "name": " Chillapallli Tejaveni",
    "monthly_budget": 1000,
    "health_conditions": [
      "none"
    ],
    "fitness_goals": [
      "to build muscle"
    ],
    "diet_type": "vegan",
    "location_input": "Chennai",
    "location": {
      "city": "Chennai",
      "country": "India",
      "region": "Tamil Nadu",
      "latitude": 13.0825,
      "longitude": 80.275
    },
    "regional_ingredients": [],
    "mood": "\ud83d\ude34 Tired",
    "activity_type": "Walking",
    "sleep_hours": 8.0
  },
  {
    "name": " Chillapallli Tejaveni",
    "monthly_budget": 500,
    "health_conditions": [
      "obesity"
    ],
    "fitness_goals": [
      "need to lose 5 kgs of weight"
    ],
    "diet_type": "vegan",
    "location_input": "Mangalagiri",
    "location": {
      "city": "Mangalagiri",
      "country": "India",
      "region": "Andhra Pradesh",
      "latitude": 16.43,
      "longitude": 80.55
    },
    "regional_ingredients": [],
    "mood": "\ud83d\ude34 Tired",
    "activity_type": "Walking",
    "sleep_hours": 8.0
  },
  {
    "name": " Chillapallli Tejaveni",
    "monthly_budget": 1000,
    "health_conditions": [
      "obesity"
    ],
    "fitness_goals": [
      "need to lose 5 kgs of weight"
    ],
    "diet_type": "vegan",
    "location_input": "Chennai",
    "location": {
      "city": "Chennai",
      "country": "India",
      "region": "Tamil Nadu",
      "latitude": 13.0825,
      "longitude": 80.275
    },
    "regional_ingredients": [],
    "mood": "\ud83d\ude34 Tired",
    "activity_type": "Walking",
    "sleep_hours": 8.0
  }
]